[
  {
    "constituency": "Visakhapatnam",
    "district": "Visakhapatnam",
    "state": "Andhra Pradesh",
    "latitude": 17.68,
    "longitude": 83.21,
    "x": 300,
    "y": 218,
    "category": "Water",
    "priorityScore": 92,
    "priorityLevel": "High",
    "count": 48,
    "recommendedProject": "Jal Jeevan Mission Pipeline Expansion & Fluoride Treatment Plant",
    "details": {
      "focusCategories": ["Water Supply", "Road Infrastructure", "Government School Upgrades"],
      "populationServed": 78500
    }
  },
  {
    "constituency": "Varanasi",
    "district": "Varanasi",
    "state": "Uttar Pradesh",
    "latitude": 25.31,
    "longitude": 82.97,
    "x": 300,
    "y": 125,
    "category": "Roads",
    "priorityScore": 94,
    "priorityLevel": "Critical",
    "count": 24,
    "recommendedProject": "Emergency Highway Access Road & Stormwater Drainage Layer"
  },
  {
    "constituency": "Vijayawada",
    "district": "Krishna",
    "state": "Andhra Pradesh",
    "latitude": 16.5,
    "longitude": 80.64,
    "x": 278,
    "y": 234,
    "category": "Transport",
    "priorityScore": 76,
    "priorityLevel": "Medium",
    "count": 18,
    "recommendedProject": "Smart Junction Signalization & Bus Terminal Upgrade"
  },
  {
    "constituency": "Tirupati",
    "district": "Chittoor",
    "state": "Andhra Pradesh",
    "latitude": 13.62,
    "longitude": 79.41,
    "x": 265,
    "y": 266,
    "category": "Sanitation",
    "priorityScore": 65,
    "priorityLevel": "Medium",
    "count": 15,
    "recommendedProject": "Solid Waste Processing & Public Toilet Blocks Setup"
  },
  {
    "constituency": "Kakinada",
    "district": "East Godavari",
    "state": "Andhra Pradesh",
    "latitude": 16.98,
    "longitude": 82.24,
    "x": 292,
    "y": 228,
    "category": "Water",
    "priorityScore": 55,
    "priorityLevel": "Low",
    "count": 9,
    "recommendedProject": "Rural Canal Desilting & Drinking Water Line Repair"
  },
  {
    "constituency": "Rajahmundry",
    "district": "East Godavari",
    "state": "Andhra Pradesh",
    "latitude": 17.0,
    "longitude": 81.8,
    "x": 288,
    "y": 228,
    "category": "Education",
    "priorityScore": 48,
    "priorityLevel": "Low",
    "count": 8,
    "recommendedProject": "Mandal School Roof Repair & Bench Allocations"
  },
  {
    "constituency": "Guntur",
    "district": "Guntur",
    "state": "Andhra Pradesh",
    "latitude": 16.3,
    "longitude": 80.43,
    "x": 276,
    "y": 236,
    "category": "Agriculture",
    "priorityScore": 88,
    "priorityLevel": "High",
    "count": 32,
    "recommendedProject": "Solar Cold Storage Unit for Tomato and Chili Farmers"
  },
  {
    "constituency": "Nellore",
    "district": "Nellore",
    "state": "Andhra Pradesh",
    "latitude": 14.44,
    "longitude": 79.98,
    "x": 270,
    "y": 256,
    "category": "Roads",
    "priorityScore": 62,
    "priorityLevel": "Medium",
    "count": 14,
    "recommendedProject": "Bridge Reinforcement & Village Connecting Road Re-layering"
  },
  {
    "constituency": "Kurnool",
    "district": "Kurnool",
    "state": "Andhra Pradesh",
    "latitude": 15.82,
    "longitude": 78.03,
    "x": 254,
    "y": 242,
    "category": "Healthcare",
    "priorityScore": 82,
    "priorityLevel": "High",
    "count": 21,
    "recommendedProject": "Oxygen Plant Installation at Community Health Centre"
  },
  {
    "constituency": "Anantapur",
    "district": "Anantapur",
    "state": "Andhra Pradesh",
    "latitude": 14.68,
    "longitude": 77.6,
    "x": 250,
    "y": 254,
    "category": "Agriculture",
    "priorityScore": 79,
    "priorityLevel": "Medium",
    "count": 16,
    "recommendedProject": "Drip Irrigation Pipeline Seeding & Water Shed Repair"
  },
  {
    "constituency": "Hyderabad",
    "district": "Hyderabad",
    "state": "Telangana",
    "latitude": 17.38,
    "longitude": 78.48,
    "x": 258,
    "y": 222,
    "category": "Healthcare",
    "priorityScore": 85,
    "priorityLevel": "High",
    "count": 27,
    "recommendedProject": "PHC Emergency Trauma Life-Support Equipment Setup"
  },
  {
    "constituency": "Warangal",
    "district": "Warangal",
    "state": "Telangana",
    "latitude": 17.96,
    "longitude": 79.59,
    "x": 268,
    "y": 216,
    "category": "Education",
    "priorityScore": 70,
    "priorityLevel": "Medium",
    "count": 12,
    "recommendedProject": "ZP School Science Lab Upgrade & Computer Systems Supply"
  },
  {
    "constituency": "Bengaluru",
    "district": "Bengaluru Urban",
    "state": "Karnataka",
    "latitude": 12.97,
    "longitude": 77.59,
    "x": 248,
    "y": 275,
    "category": "Water",
    "priorityScore": 95,
    "priorityLevel": "Critical",
    "count": 52,
    "recommendedProject": "Sewage and Drinking Water Separator Audit & Replacement"
  },
  {
    "constituency": "Mysuru",
    "district": "Mysuru",
    "state": "Karnataka",
    "latitude": 12.29,
    "longitude": 76.63,
    "x": 240,
    "y": 282,
    "category": "Transport",
    "priorityScore": 58,
    "priorityLevel": "Low",
    "count": 7,
    "recommendedProject": "Heritage Tourist Route Bus Lane Signage Upgrades"
  },
  {
    "constituency": "Chennai",
    "district": "Chennai",
    "state": "Tamil Nadu",
    "latitude": 13.08,
    "longitude": 80.27,
    "x": 272,
    "y": 274,
    "category": "Sanitation",
    "priorityScore": 91,
    "priorityLevel": "Critical",
    "count": 44,
    "recommendedProject": "Stormwater Drain De-clogging & Sump Pump Installation"
  },
  {
    "constituency": "Coimbatore",
    "district": "Coimbatore",
    "state": "Tamil Nadu",
    "latitude": 11.01,
    "longitude": 76.95,
    "x": 244,
    "y": 298,
    "category": "Digital Access",
    "priorityScore": 73,
    "priorityLevel": "Medium",
    "count": 15,
    "recommendedProject": "Broadband Fiber Link & Smart Class Thin Client Allocations"
  },
  {
    "constituency": "Madurai",
    "district": "Madurai",
    "state": "Tamil Nadu",
    "latitude": 9.92,
    "longitude": 78.11,
    "x": 252,
    "y": 312,
    "category": "Healthcare",
    "priorityScore": 80,
    "priorityLevel": "High",
    "count": 19,
    "recommendedProject": "PHC Maternity Ward Expansion & Diagnostic Lab Upgrade"
  },
  {
    "constituency": "Kochi",
    "district": "Ernakulam",
    "state": "Kerala",
    "latitude": 9.93,
    "longitude": 76.26,
    "x": 236,
    "y": 312,
    "category": "Transport",
    "priorityScore": 78,
    "priorityLevel": "High",
    "count": 22,
    "recommendedProject": "Ferry Jetty Structural Reinforcement & Safety Railings"
  },
  {
    "constituency": "Thiruvananthapuram",
    "district": "Thiruvananthapuram",
    "state": "Kerala",
    "latitude": 8.52,
    "longitude": 76.93,
    "x": 242,
    "y": 328,
    "category": "Digital Access",
    "priorityScore": 52,
    "priorityLevel": "Low",
    "count": 6,
    "recommendedProject": "Public Wi-Fi Hotspots Seeding at Panchayat Centers"
  },
  {
    "constituency": "Mumbai",
    "district": "Mumbai City",
    "state": "Maharashtra",
    "latitude": 19.07,
    "longitude": 72.87,
    "x": 208,
    "y": 198,
    "category": "Roads",
    "priorityScore": 96,
    "priorityLevel": "Critical",
    "count": 65,
    "recommendedProject": "Asphalt Pavement Repairs & Pothole Patching on Arterial Flyovers"
  },
  {
    "constituency": "Pune",
    "district": "Pune",
    "state": "Maharashtra",
    "latitude": 18.52,
    "longitude": 73.85,
    "x": 216,
    "y": 208,
    "category": "Transport",
    "priorityScore": 84,
    "priorityLevel": "High",
    "count": 28,
    "recommendedProject": "Pedestrian Overpass at Congested Depots & Signal Syncing"
  },
  {
    "constituency": "Nagpur",
    "district": "Nagpur",
    "state": "Maharashtra",
    "latitude": 21.14,
    "longitude": 79.08,
    "x": 265,
    "y": 172,
    "category": "Water",
    "priorityScore": 72,
    "priorityLevel": "Medium",
    "count": 14,
    "recommendedProject": "Urban Water Pipe Leak Auditing & Pump Capacity Booster"
  },
  {
    "constituency": "Ahmedabad",
    "district": "Ahmedabad",
    "state": "Gujarat",
    "latitude": 23.02,
    "longitude": 72.57,
    "x": 205,
    "y": 150,
    "category": "Sanitation",
    "priorityScore": 75,
    "priorityLevel": "Medium",
    "count": 20,
    "recommendedProject": "Municipal Wet Waste Aerobic Composter Facility Setup"
  },
  {
    "constituency": "Surat",
    "district": "Surat",
    "state": "Gujarat",
    "latitude": 21.17,
    "longitude": 72.83,
    "x": 208,
    "y": 172,
    "category": "Water",
    "priorityScore": 78,
    "priorityLevel": "High",
    "count": 25,
    "recommendedProject": "Industrial Effluent Filtration Audit & Safe Water Grid Checks"
  },
  {
    "constituency": "Jaipur",
    "district": "Jaipur",
    "state": "Rajasthan",
    "latitude": 26.91,
    "longitude": 75.78,
    "x": 235,
    "y": 110,
    "category": "Sanitation",
    "priorityScore": 81,
    "priorityLevel": "High",
    "count": 29,
    "recommendedProject": "Commercial Zone E-Toilet Installation & Water Tank Lines"
  },
  {
    "constituency": "Udaipur",
    "district": "Udaipur",
    "state": "Rajasthan",
    "latitude": 24.58,
    "longitude": 73.71,
    "x": 216,
    "y": 135,
    "category": "Water",
    "priorityScore": 74,
    "priorityLevel": "Medium",
    "count": 16,
    "recommendedProject": "Lake Outlet Desilting & Natural Filter Bed Maintenance"
  },
  {
    "constituency": "Lucknow",
    "district": "Lucknow",
    "state": "Uttar Pradesh",
    "latitude": 26.85,
    "longitude": 80.94,
    "x": 282,
    "y": 110,
    "category": "Education",
    "priorityScore": 87,
    "priorityLevel": "High",
    "count": 31,
    "recommendedProject": "Prefabricated Anganwadi Classrooms & Digital Board Supply"
  },
  {
    "constituency": "Prayagraj",
    "district": "Prayagraj",
    "state": "Uttar Pradesh",
    "latitude": 25.43,
    "longitude": 81.84,
    "x": 290,
    "y": 125,
    "category": "Sanitation",
    "priorityScore": 73,
    "priorityLevel": "Medium",
    "count": 14,
    "recommendedProject": "Pilgrim Transit Zone Public Toilets & Waste Disposal Stations"
  },
  {
    "constituency": "Kanpur",
    "district": "Kanpur Nagar",
    "state": "Uttar Pradesh",
    "latitude": 26.44,
    "longitude": 80.33,
    "x": 276,
    "y": 115,
    "category": "Water",
    "priorityScore": 89,
    "priorityLevel": "High",
    "count": 35,
    "recommendedProject": "Tannery Corridor Ground Water Quality Monitoring & Filtration Grid"
  },
  {
    "constituency": "Delhi",
    "district": "New Delhi",
    "state": "Delhi",
    "latitude": 28.61,
    "longitude": 77.2,
    "x": 248,
    "y": 92,
    "category": "Sanitation",
    "priorityScore": 93,
    "priorityLevel": "Critical",
    "count": 58,
    "recommendedProject": "Slum Area Public Toilet Upgradation & Biogas Digester Setup"
  },
  {
    "constituency": "Bhopal",
    "district": "Bhopal",
    "state": "Madhya Pradesh",
    "latitude": 23.25,
    "longitude": 77.41,
    "x": 250,
    "y": 150,
    "category": "Water",
    "priorityScore": 68,
    "priorityLevel": "Medium",
    "count": 13,
    "recommendedProject": "Upper Lake Pipeline Distribution Main repair"
  },
  {
    "constituency": "Indore",
    "district": "Indore",
    "state": "Madhya Pradesh",
    "latitude": 22.71,
    "longitude": 75.85,
    "x": 236,
    "y": 155,
    "category": "Sanitation",
    "priorityScore": 50,
    "priorityLevel": "Low",
    "count": 6,
    "recommendedProject": "Mechanized Sweeping Vehicle Allocations & Ward Dustbins"
  },
  {
    "constituency": "Bhubaneswar",
    "district": "Khurda",
    "state": "Odisha",
    "latitude": 20.29,
    "longitude": 85.82,
    "x": 326,
    "y": 180,
    "category": "Sanitation",
    "priorityScore": 77,
    "priorityLevel": "Medium",
    "count": 19,
    "recommendedProject": "Sewerage Treatment Plant Upgradation & Sludge Pumps Allocation"
  },
  {
    "constituency": "Kolkata",
    "district": "Kolkata",
    "state": "West Bengal",
    "latitude": 22.57,
    "longitude": 88.36,
    "x": 350,
    "y": 152,
    "category": "Roads",
    "priorityScore": 90,
    "priorityLevel": "Critical",
    "count": 46,
    "recommendedProject": "Tram Track Resurfacing & Drainage Grates Replacement"
  },
  {
    "constituency": "Patna",
    "district": "Patna",
    "state": "Bihar",
    "latitude": 25.59,
    "longitude": 85.13,
    "x": 320,
    "y": 122,
    "category": "Water",
    "priorityScore": 86,
    "priorityLevel": "High",
    "count": 30,
    "recommendedProject": "Arsenic Water Treatment Plant & Public Water Piped Network Expansion"
  },
  {
    "constituency": "Ranchi",
    "district": "Ranchi",
    "state": "Jharkhand",
    "latitude": 23.36,
    "longitude": 85.33,
    "x": 322,
    "y": 145,
    "category": "Education",
    "priorityScore": 75,
    "priorityLevel": "Medium",
    "count": 17,
    "recommendedProject": "Tribal Welfare School Computer Center & Science Lab Seeding"
  },
  {
    "constituency": "Guwahati",
    "district": "Kamrup Metropolitan",
    "state": "Assam",
    "latitude": 26.14,
    "longitude": 91.73,
    "x": 380,
    "y": 120,
    "category": "Roads",
    "priorityScore": 88,
    "priorityLevel": "High",
    "count": 26,
    "recommendedProject": "Brahmaputra Flood Plain Highway Drainage & Embankment Road"
  },
  {
    "constituency": "Amritsar",
    "district": "Amritsar",
    "state": "Punjab",
    "latitude": 31.63,
    "longitude": 74.87,
    "x": 228,
    "y": 60,
    "category": "Transport",
    "priorityScore": 60,
    "priorityLevel": "Low",
    "count": 8,
    "recommendedProject": "Transit Parking Facilities & Golden Temple Pedestrian Signage"
  },
  {
    "constituency": "Chandigarh",
    "district": "Chandigarh",
    "state": "Haryana",
    "latitude": 30.73,
    "longitude": 76.77,
    "x": 244,
    "y": 70,
    "category": "Transport",
    "priorityScore": 45,
    "priorityLevel": "Low",
    "count": 5,
    "recommendedProject": "Cycle Track Network Expansions & EV Charging Point Seeding"
  },
  {
    "constituency": "Dehradun",
    "district": "Dehradun",
    "state": "Uttarakhand",
    "latitude": 30.31,
    "longitude": 78.03,
    "x": 255,
    "y": 75,
    "category": "Healthcare",
    "priorityScore": 83,
    "priorityLevel": "High",
    "count": 21,
    "recommendedProject": "Hilly Region Ambulatory Services Setup & PHC Supply Chains"
  },
  {
    "constituency": "Shimla",
    "district": "Shimla",
    "state": "Himachal Pradesh",
    "latitude": 31.1,
    "longitude": 77.17,
    "x": 248,
    "y": 65,
    "category": "Roads",
    "priorityScore": 79,
    "priorityLevel": "Medium",
    "count": 13,
    "recommendedProject": "Landslide Protection Fencing & Retaining Wall Infrastructure"
  },
  {
    "constituency": "Srinagar",
    "district": "Srinagar",
    "state": "Jammu & Kashmir",
    "latitude": 34.08,
    "longitude": 74.79,
    "x": 230,
    "y": 35,
    "category": "Water",
    "priorityScore": 87,
    "priorityLevel": "High",
    "count": 24,
    "recommendedProject": "Dal Lake Inflow Water Filtration Grids & Piped Water Supply"
  },
  {
    "constituency": "Jammu",
    "district": "Jammu",
    "state": "Jammu & Kashmir",
    "latitude": 32.72,
    "longitude": 74.85,
    "x": 232,
    "y": 48,
    "category": "Education",
    "priorityScore": 64,
    "priorityLevel": "Medium",
    "count": 11,
    "recommendedProject": "Border Village School Prefabricated Library Setup"
  },
  {
    "constituency": "Shillong",
    "district": "East Khasi Hills",
    "state": "Meghalaya",
    "latitude": 25.57,
    "longitude": 91.88,
    "x": 382,
    "y": 128,
    "category": "Healthcare",
    "priorityScore": 81,
    "priorityLevel": "High",
    "count": 16,
    "recommendedProject": "Maternity and Child Care Sub-Centre Refurbishment"
  },
  {
    "constituency": "Imphal",
    "district": "Imphal West",
    "state": "Manipur",
    "latitude": 24.81,
    "longitude": 93.93,
    "x": 400,
    "y": 135,
    "category": "Roads",
    "priorityScore": 85,
    "priorityLevel": "High",
    "count": 23,
    "recommendedProject": "District Main Road Slope Stabilization & Asphalt Layers"
  },
  {
    "constituency": "Aizawl",
    "district": "Aizawl",
    "state": "Mizoram",
    "latitude": 23.73,
    "longitude": 92.71,
    "x": 390,
    "y": 145,
    "category": "Water",
    "priorityScore": 76,
    "priorityLevel": "Medium",
    "count": 14,
    "recommendedProject": "Rainwater Harvesting Catchment Grids & Local Water Storage Tanks"
  },
  {
    "constituency": "Agartala",
    "district": "West Tripura",
    "state": "Tripura",
    "latitude": 23.83,
    "longitude": 91.28,
    "x": 378,
    "y": 142,
    "category": "Education",
    "priorityScore": 56,
    "priorityLevel": "Low",
    "count": 7,
    "recommendedProject": "ZP High School Drinking Water Purifier & Toilet Blocks repair"
  },
  {
    "constituency": "Gangtok",
    "district": "East Sikkim",
    "state": "Sikkim",
    "latitude": 27.33,
    "longitude": 88.61,
    "x": 352,
    "y": 110,
    "category": "Roads",
    "priorityScore": 78,
    "priorityLevel": "Medium",
    "count": 12,
    "recommendedProject": "Mountain Slope Protective Wire Netting & Concrete Drain Lining"
  },
  {
    "constituency": "Itanagar",
    "district": "Papum Pare",
    "state": "Arunachal Pradesh",
    "latitude": 27.08,
    "longitude": 93.6,
    "x": 405,
    "y": 112,
    "category": "Healthcare",
    "priorityScore": 84,
    "priorityLevel": "High",
    "count": 18,
    "recommendedProject": "Sub-Divisional Hospital Trauma Centre Equipment Allocations"
  }
]
